{"results":[{"fsq_id":"4e49413e81dc766f3e3d6312","categories":[{"id":16032,"name":"Park","icon":{"prefix":"https://ss3.4sqi.net/img/categories_v2/parks_outdoors/park_","suffix":".png"}}],"chains":[],"distance":983,"geocodes":{"main":{"latitude":43.639288,"longitude":-79.378261},"roof":{"latitude":43.639288,"longitude":-79.378261}},"link":"/v3/places/4e49413e81dc766f3e3d6312","location":{"address":"25 Queens Dr","country":"CA","cross_street":"","formatted_address":"25 Queens Dr, Toronto ON M9N 2H3","locality":"Toronto","postcode":"M9N 2H3","region":"ON"},"name":"Harbour Square Park","related_places":{"children":[]},"timezone":"America/Toronto"},{"fsq_id":"4ad4c062f964a520bff720e3","categories":[{"id":18025,"name":"Dance Studio","icon":{"prefix":"https://ss3.4sqi.net/img/categories_v2/arts_entertainment/performingarts_dancestudio_","suffix":".png"}}],"chains":[],"distance":1007,"geocodes":{"main":{"latitude":43.638298,"longitude":-79.3803},"roof":{"latitude":43.638298,"longitude":-79.3803}},"link":"/v3/places/4ad4c062f964a520bff720e3","location":{"address":"235 Queens Quay W","country":"CA","cross_street":"","formatted_address":"235 Queens Quay W, Toronto ON M5J 2G8","locality":"Toronto","neighborhood":["Harbourfront"],"postcode":"M5J 2G8","region":"ON"},"name":"Fleck Dance Theater","related_places":{},"timezone":"America/Toronto"},{"fsq_id":"4ae33054f964a520759121e3","categories":[{"id":13099,"name":"Chinese Restaurant","icon":{"prefix":"https://ss3.4sqi.net/img/categories_v2/food/asian_","suffix":".png"}}],"chains":[],"distance":1009,"geocodes":{"main":{"latitude":43.639446,"longitude":-79.380716},"roof":{"latitude":43.639446,"longitude":-79.380716}},"link":"/v3/places/4ae33054f964a520759121e3","location":{"address":"207 Queen's Quay W","address_extended":"# 200","country":"CA","formatted_address":"207 Queen's Quay W, Toronto ON M5J 1A7","locality":"Toronto","neighborhood":["Harbourfront"],"postcode":"M5J 1A7","region":"ON"},"name":"Pearl Harbourfront Restaurant","related_places":{},"timezone":"America/Toronto"},{"fsq_id":"597d07dd3149b97652231223","categories":[{"id":13064,"name":"Pizzeria","icon":{"prefix":"https://ss3.4sqi.net/img/categories_v2/food/pizza_","suffix":".png"}},{"id":13236,"name":"Italian Restaurant","icon":{"prefix":"https://ss3.4sqi.net/img/categories_v2/food/italian_","suffix":".png"}}],"chains":[],"distance":1002,"geocodes":{"main":{"latitude":43.638271,"longitude":-79.38067},"roof":{"latitude":43.638271,"longitude":-79.38067}},"link":"/v3/places/597d07dd3149b97652231223","location":{"address":"207 Queens Quay W","address_extended":"Suite 155","country":"CA","cross_street":"","formatted_address":"207 Queens Quay W, Toronto ON M5J 1A7","locality":"Toronto","neighborhood":["Downtown Toronto"],"postcode":"M5J 1A7","region":"ON"},"name":"Pie Bar","related_places":{"parent":{"fsq_id":"4ad4c062f964a52000f820e3","name":"Queen's Quay Terminal"}},"timezone":"America/Toronto"},{"fsq_id":"55a19437498eeea53fa58b54","categories":[{"id":13040,"name":"Dessert Shop","icon":{"prefix":"https://ss3.4sqi.net/img/categories_v2/food/dessert_","suffix":".png"}},{"id":13145,"name":"Fast Food Restaurant","icon":{"prefix":"https://ss3.4sqi.net/img/categories_v2/food/fastfood_","suffix":".png"}}],"chains":[],"distance":1105,"geocodes":{"main":{"latitude":43.639722,"longitude":-79.380012},"roof":{"latitude":43.639722,"longitude":-79.380012}},"link":"/v3/places/55a19437498eeea53fa58b54","location":{"address":"145 Queen's Quay W","country":"CA","cross_street":"York St","formatted_address":"145 Queen's Quay W (York St), Toronto ON M5J 2H4","locality":"Toronto","neighborhood":["Harbourfront"],"postcode":"M5J 2H4","region":"ON"},"name":"Beaver Tails Toronto Harbourfront","related_places":{},"timezone":"America/Toronto"},{"fsq_id":"4ad4c05ff964a520edf620e3","categories":[{"id":10004,"name":"Art Gallery","icon":{"prefix":"https://ss3.4sqi.net/img/categories_v2/arts_entertainment/artgallery_","suffix":".png"}}],"chains":[],"distance":1095,"geocodes":{"main":{"latitude":43.638252,"longitude":-79.381993}},"link":"/v3/places/4ad4c05ff964a520edf620e3","location":{"address":"231 Queens Quay W","country":"CA","cross_street":"","formatted_address":"231 Queens Quay W, Toronto ON M5J 2G8","locality":"Toronto","postcode":"M5J 2G8","region":"ON"},"name":"The Power Plant","related_places":{},"timezone":"America/Toronto"},{"fsq_id":"56201ed4498e7f700c462170","categories":[{"id":13276,"name":"Sushi Restaurant","icon":{"prefix":"https://ss3.4sqi.net/img/categories_v2/food/sushi_","suffix":".png"}}],"chains":[],"distance":1156,"geocodes":{"main":{"latitude":43.641379,"longitude":-79.377285},"roof":{"latitude":43.641379,"longitude":-79.377285}},"link":"/v3/places/56201ed4498e7f700c462170","location":{"address":"10 Bay St","address_extended":"# 105","country":"CA","cross_street":"at Queens Quay W","formatted_address":"10 Bay St (at Queens Quay W), Toronto ON M5J 2R8","locality":"Toronto","neighborhood":["Downtown Toronto"],"postcode":"M5J 2R8","region":"ON"},"name":"Miku","related_places":{},"timezone":"America/Toronto"},{"fsq_id":"4ad4c05ef964a52094f620e3","categories":[{"id":10039,"name":"Music Venue","icon":{"prefix":"https://ss3.4sqi.net/img/categories_v2/arts_entertainment/musicvenue_","suffix":".png"}}],"chains":[],"distance":1190,"geocodes":{"main":{"latitude":43.638953,"longitude":-79.382881},"roof":{"latitude":43.638953,"longitude":-79.382881}},"link":"/v3/places/4ad4c05ef964a52094f620e3","location":{"address":"235 Queens Quay W","country":"CA","cross_street":"at Lower Simcoe St.","formatted_address":"235 Queens Quay W (at Lower Simcoe St.), Toronto ON M5J 2G8","locality":"Toronto","neighborhood":["Harbourfront"],"postcode":"M5J 2G8","region":"ON"},"name":"Harbourfront Centre","related_places":{"children":[{"fsq_id":"579b8a53498ed16d9c683de9","name":"Marilyn Brewer Community Space"},{"fsq_id":"5f3499eb48c64a2e5227cfa6","name":"Ann Tindal Park"}]},"timezone":"America/Toronto"},{"fsq_id":"4ad4c05ef964a5209af620e3","categories":[{"id":16032,"name":"Park","icon":{"prefix":"https://ss3.4sqi.net/img/categories_v2/parks_outdoors/park_","suffix":".png"}}],"chains":[],"distance":1220,"geocodes":{"main":{"latitude":43.621986,"longitude":-79.3785},"roof":{"latitude":43.621986,"longitude":-79.3785}},"link":"/v3/places/4ad4c05ef964a5209af620e3","location":{"address":"35 West Ave","country":"CA","formatted_address":"35 West Ave, Toronto ON M4M 2L7","locality":"Toronto","neighborhood":["Toronto Islands"],"postcode":"M4M 2L7","region":"ON"},"name":"Toronto Islands","related_places":{"children":[{"fsq_id":"4bb6320246d4a5936fd7c5c0","name":"Hanlan's Point Beach"},{"fsq_id":"4bb79c907421a5934fbfc040","name":"Ward's Island"}]},"timezone":"America/Toronto"},{"fsq_id":"57768fb1498ec8fca5cc0594","categories":[{"id":13003,"name":"Bar","icon":{"prefix":"https://ss3.4sqi.net/img/categories_v2/nightlife/pub_","suffix":".png"}},{"id":13034,"name":"Caf√©","icon":{"prefix":"https://ss3.4sqi.net/img/categories_v2/food/cafe_","suffix":".png"}},{"id":13065,"name":"Restaurant","icon":{"prefix":"https://ss3.4sqi.net/img/categories_v2/food/default_","suffix":".png"}}],"chains":[],"distance":1128,"geocodes":{"main":{"latitude":43.639175,"longitude":-79.382916},"roof":{"latitude":43.639175,"longitude":-79.382916}},"link":"/v3/places/57768fb1498ec8fca5cc0594","location":{"address":"235 Queens Quay W","country":"CA","cross_street":"","formatted_address":"235 Queens Quay W, Toronto ON M5J 2G8","locality":"Toronto","neighborhood":["Downtown Toronto"],"postcode":"M5J 2G8","region":"ON"},"name":"Boxcar Social","related_places":{},"timezone":"America/Toronto"}],"context":{"geo_bounds":{"circle":{"center":{"latitude":43.63189697265625,"longitude":-79.37159729003906},"radius":1890}}}}