{"results":[{"fsq_id":"4b5757fbf964a520943228e3","categories":[{"id":17018,"name":"Bookstore","icon":{"prefix":"https://ss3.4sqi.net/img/categories_v2/shops/bookstore_","suffix":".png"}},{"id":17022,"name":"Comic Book Store","icon":{"prefix":"https://ss3.4sqi.net/img/categories_v2/shops/comic_","suffix":".png"}}],"chains":[],"distance":505,"geocodes":{"main":{"latitude":44.357576,"longitude":-79.698822},"roof":{"latitude":44.357576,"longitude":-79.698822}},"link":"/v3/places/4b5757fbf964a520943228e3","location":{"address":"241 Essa Rd","address_extended":"Unit 1","country":"CA","cross_street":"Ardagh","formatted_address":"241 Essa Rd (Ardagh), Barrie ON L4N 6B7","locality":"Barrie","postcode":"L4N 6B7","region":"ON"},"name":"Blue Beetle Comics","related_places":{},"timezone":"America/Toronto"},{"fsq_id":"4ce3e211b8df5481b1adb09b","categories":[{"id":17117,"name":"Sporting Goods Retail","icon":{"prefix":"https://ss3.4sqi.net/img/categories_v2/shops/sports_outdoors_","suffix":".png"}}],"chains":[],"distance":92,"geocodes":{"main":{"latitude":44.3571,"longitude":-79.69385},"roof":{"latitude":44.3571,"longitude":-79.69385}},"link":"/v3/places/4ce3e211b8df5481b1adb09b","location":{"address":"61 Bryne Dr","country":"CA","cross_street":"at Essa Road","formatted_address":"61 Bryne Dr (at Essa Road), Barrie ON L4N 8V8","locality":"Barrie","postcode":"L4N 8V8","region":"ON"},"name":"MEC Barrie","related_places":{},"timezone":"America/Toronto"},{"fsq_id":"4b65f573f964a5200e0b2be3","categories":[{"id":13099,"name":"Chinese Restaurant","icon":{"prefix":"https://ss3.4sqi.net/img/categories_v2/food/asian_","suffix":".png"}}],"chains":[],"distance":337,"geocodes":{"main":{"latitude":44.360218,"longitude":-79.69326}},"link":"/v3/places/4b65f573f964a5200e0b2be3","location":{"address":"28 Fairview Rd","country":"CA","cross_street":"at Little Ave","formatted_address":"28 Fairview Rd (at Little Ave), Barrie ON L4N 4P3","locality":"Barrie","postcode":"L4N 4P3","region":"ON"},"name":"Mandarin Buffet","related_places":{},"timezone":"America/Toronto"},{"fsq_id":"4da3ad9c9935a093aabece6f","categories":[{"id":13064,"name":"Pizzeria","icon":{"prefix":"https://ss3.4sqi.net/img/categories_v2/food/pizza_","suffix":".png"}}],"chains":[],"distance":534,"geocodes":{"main":{"latitude":44.357576,"longitude":-79.698822},"roof":{"latitude":44.357576,"longitude":-79.698822}},"link":"/v3/places/4da3ad9c9935a093aabece6f","location":{"address":"241 Essa Rd","address_extended":"Unit 8","country":"CA","cross_street":"","formatted_address":"241 Essa Rd, Barrie ON L4N 6B7","locality":"Barrie","neighborhood":["Barrie"],"postcode":"L4N 6B7","region":"ON"},"name":"Cocelli Pizza","related_places":{},"timezone":"America/Toronto"},{"fsq_id":"4bca63f40687ef3b7e08dccc","categories":[{"id":13276,"name":"Sushi Restaurant","icon":{"prefix":"https://ss3.4sqi.net/img/categories_v2/food/sushi_","suffix":".png"}},{"id":13352,"name":"Thai Restaurant","icon":{"prefix":"https://ss3.4sqi.net/img/categories_v2/food/thai_","suffix":".png"}}],"chains":[],"distance":770,"geocodes":{"main":{"latitude":44.363859,"longitude":-79.695742}},"link":"/v3/places/4bca63f40687ef3b7e08dccc","location":{"address":"10 Fairview Rd","country":"CA","cross_street":"","formatted_address":"10 Fairview Rd, Barrie ON L4N 4P3","locality":"Barrie","neighborhood":["Barrie"],"postcode":"L4N 4P3","region":"ON"},"name":"Noble Cuisine Thai & Japanese","related_places":{},"timezone":"America/Toronto"},{"fsq_id":"4ae2f2c1f964a520bd8f21e3","categories":[{"id":13035,"name":"Coffee Shop","icon":{"prefix":"https://ss3.4sqi.net/img/categories_v2/food/coffeeshop_","suffix":".png"}}],"chains":[{"id":"ab4c54c0-d68a-012e-5619-003048cad9da","name":"Starbucks"}],"distance":1386,"geocodes":{"main":{"latitude":44.346952,"longitude":-79.703216},"roof":{"latitude":44.346952,"longitude":-79.703216}},"link":"/v3/places/4ae2f2c1f964a520bd8f21e3","location":{"address":"420 Essa Rd","address_extended":"C6","country":"CA","cross_street":"at Veterans Dr","formatted_address":"420 Essa Rd (at Veterans Dr), Barrie ON L4N 9J7","locality":"Barrie","neighborhood":["Barrie"],"postcode":"L4N 9J7","region":"ON"},"name":"Starbucks","related_places":{},"timezone":"America/Toronto"},{"fsq_id":"55b55448498e6654f006708f","categories":[{"id":13003,"name":"Bar","icon":{"prefix":"https://ss3.4sqi.net/img/categories_v2/nightlife/pub_","suffix":".png"}},{"id":13029,"name":"Brewery","icon":{"prefix":"https://ss3.4sqi.net/img/categories_v2/food/brewery_","suffix":".png"}},{"id":13065,"name":"Restaurant","icon":{"prefix":"https://ss3.4sqi.net/img/categories_v2/food/default_","suffix":".png"}}],"chains":[],"distance":1882,"geocodes":{"main":{"latitude":44.344528,"longitude":-79.677406},"roof":{"latitude":44.344528,"longitude":-79.677406}},"link":"/v3/places/55b55448498e6654f006708f","location":{"address":"431 Bayview Dr","country":"CA","cross_street":"Churchill Dr.","formatted_address":"431 Bayview Dr (Churchill Dr.), Barrie ON L4N 8Y2","locality":"Barrie","neighborhood":["Barrie"],"postcode":"L4N 8Y2","region":"ON"},"name":"Redline Brewhouse","related_places":{},"timezone":"America/Toronto"},{"fsq_id":"53bb227c498eb927faa4c7d4","categories":[{"id":17117,"name":"Sporting Goods Retail","icon":{"prefix":"https://ss3.4sqi.net/img/categories_v2/shops/sports_outdoors_","suffix":".png"}}],"chains":[],"distance":1889,"geocodes":{"main":{"latitude":44.336881,"longitude":-79.681351},"roof":{"latitude":44.336881,"longitude":-79.681351}},"link":"/v3/places/53bb227c498eb927faa4c7d4","location":{"address":"Park Pl Center 50 Concert Way","country":"CA","cross_street":"","formatted_address":"Park Pl Center 50 Concert Way, Barrie ON L4N 6N5","locality":"Barrie","postcode":"L4N 6N5","region":"ON"},"name":"Cabelaâ€™S Retail Canada Inc","related_places":{},"timezone":"America/Toronto"},{"fsq_id":"4cbb0dafdd41a35d6ac8eba0","categories":[{"id":13028,"name":"Breakfast Spot","icon":{"prefix":"https://ss3.4sqi.net/img/categories_v2/food/breakfast_","suffix":".png"}}],"chains":[],"distance":1608,"geocodes":{"main":{"latitude":44.345426,"longitude":-79.704688}},"link":"/v3/places/4cbb0dafdd41a35d6ac8eba0","location":{"address":"440 Essa Rd","country":"CA","cross_street":"","formatted_address":"440 Essa Rd, Barrie ON L4N 9C6","locality":"Barrie","postcode":"L4N 9C6","region":"ON"},"name":"Stacks","related_places":{},"timezone":"America/Toronto"},{"fsq_id":"4b575a64f964a520103328e3","categories":[{"id":13065,"name":"Restaurant","icon":{"prefix":"https://ss3.4sqi.net/img/categories_v2/food/default_","suffix":".png"}}],"chains":[],"distance":2324,"geocodes":{"main":{"latitude":44.33739,"longitude":-79.68362},"roof":{"latitude":44.33739,"longitude":-79.68362}},"link":"/v3/places/4b575a64f964a520103328e3","location":{"address":"110 Concert Way","address_extended":"Unit1","country":"CA","cross_street":"","formatted_address":"110 Concert Way, Barrie ON L4N 6N5","locality":"Barrie","neighborhood":["\"\""],"postcode":"L4N 6N5","region":"ON"},"name":"The Keg Steakhouse + Bar - Barrie","related_places":{},"timezone":"America/Toronto"}],"context":{"geo_bounds":{"circle":{"center":{"latitude":44.35719299316406,"longitude":-79.69290161132812},"radius":5756}}}}